City_ID,City,Lat,Lng,Max Temp,Humidity,Cloudiness,Wind Speed,Country,Date
0,labuan bajo,-8.4964,119.8877,296.5,86,11,2.88,ID,1720127123
1,waitangi,-43.9535,-176.5597,281.94,96,100,3.13,NZ,1720127124
2,benguela,-12.5763,13.4055,293.11,87,80,1.85,AO,1720126833
3,georgetown,5.4112,100.3354,298.12,84,20,0.51,MY,1720127126
4,port-aux-francais,-49.35,70.2167,275.23,96,100,13.04,TF,1720127128
5,blackmans bay,-43.0167,147.3167,275.78,88,4,0.89,AU,1720127129
6,whitehorse,60.7161,-135.0538,290.27,58,75,1.54,CA,1720127130
7,samana,19.2056,-69.3369,303.27,74,40,4.12,DO,1720127131
8,ushuaia,-54.8,-68.3,275.94,93,40,1.54,AR,1720127132
9,belyy yar,53.6039,91.3903,286.09,100,9,1.0,RU,1720127134
10,fort mcmurray,56.7268,-111.381,299.92,41,20,3.6,CA,1720127135
11,new norfolk,-42.7826,147.0587,276.44,97,21,1.38,AU,1720127136
12,jamestown,42.097,-79.2353,300.07,65,20,2.06,US,1720127137
13,saint-pierre,-21.3393,55.4781,292.97,68,40,3.6,RE,1720127138
14,lagoa formosa,-18.7786,-46.4075,294.27,41,0,2.2,BR,1720127140
15,hawaiian paradise park,19.5933,-154.9731,301.89,65,100,3.6,US,1720127141
16,nago,26.5881,127.9761,301.62,85,97,2.35,JP,1720127142
17,general conesa,-40.1,-64.4333,280.52,26,2,6.86,AR,1720127143
18,tabou,4.423,-7.3528,297.17,79,10,2.98,CI,1720127144
19,albany,42.6001,-73.9662,302.53,73,63,0.45,US,1720127146
20,vilyuchinsk,52.9306,158.4028,284.3,81,87,3.35,RU,1720127147
21,yellowknife,62.456,-114.3525,295.44,46,75,7.72,CA,1720127148
22,grytviken,-54.2811,-36.5092,268.51,55,78,0.79,GS,1720127149
23,kalix,65.853,23.1565,286.35,97,100,3.65,SE,1720127150
24,lautoka,-17.6167,177.4667,301.07,69,20,0.0,FJ,1720127152
25,mariental,-24.6333,17.9667,286.55,24,0,4.08,NA,1720127153
26,grudziadz,53.4841,18.7537,289.13,94,50,3.36,PL,1720127154
27,bardai,11.65,7.2333,298.15,74,90,4.24,NG,1720127155
28,longyearbyen,78.2186,15.6401,280.06,76,75,8.75,SJ,1720127156
29,punta arenas,-53.15,-70.9167,275.16,93,100,2.57,CL,1720127082
30,zhangjiakou shi xuanhua qu,40.6103,115.0447,293.75,67,100,0.13,CN,1720127159
31,edinburgh of the seven seas,-37.0676,-12.3116,287.96,76,100,15.88,SH,1720127160
32,olonkinbyen,70.9221,-8.7187,275.22,93,42,3.4,SJ,1720127161
33,carolina beach,34.0352,-77.8936,304.31,73,94,4.52,US,1720127162
34,arraial do cabo,-22.9661,-42.0278,298.13,78,40,2.57,BR,1720127164
35,nagqu,31.5,92.0,278.72,71,94,1.78,CN,1720127165
36,bethel,41.3712,-73.414,301.62,97,98,1.61,US,1720127166
37,rongelap,11.1635,166.8941,301.1,75,94,4.72,MH,1720127167
38,constantia,44.1833,28.65,294.65,63,7,2.27,RO,1720127168
39,hadibu,12.65,54.0333,298.96,81,100,7.51,YE,1720127170
40,hedemora,60.2797,15.9886,285.87,92,100,1.34,SE,1720127171
41,lata,40.1629,-8.3327,294.86,66,2,0.64,PT,1720127172
42,vilhena,-12.7406,-60.1458,304.27,42,20,3.09,BR,1720127170
43,usinsk,65.9939,57.5281,285.02,76,1,5.12,RU,1720127174
44,keflavik,64.0049,-22.5624,287.1,81,0,7.2,IS,1720127175
45,hassi messaoud,31.6804,6.0729,310.07,14,0,2.57,DZ,1720127177
46,porto novo,6.4965,2.6036,300.05,87,55,2.53,BJ,1720127178
47,shingu,33.7333,135.9833,298.81,85,0,2.0,JP,1720127179
48,maceio,-9.6658,-35.7353,298.84,69,20,3.6,BR,1720127180
49,bredasdorp,-34.5322,20.0403,286.47,70,79,10.31,ZA,1720127182
50,vorgashor,67.5833,63.95,285.71,79,100,10.07,RU,1720127183
51,mejit,10.2753,170.8646,300.73,82,100,7.18,MH,1720127184
52,puerto ayora,-0.7393,-90.3518,301.13,95,54,1.34,EC,1720127185
53,lompoc,34.6391,-120.4579,299.18,65,20,3.6,US,1720127186
54,enewetak,11.3474,162.3373,301.36,78,86,5.43,MH,1720127188
55,troitsko-pechorsk,62.7084,56.1964,288.46,81,2,1.96,RU,1720127189
56,utrik,11.2278,169.8474,301.07,80,99,6.67,MH,1720127190
57,suva,-18.1416,178.4415,298.86,94,75,1.03,FJ,1720127191
58,korla,41.7597,86.1469,298.49,31,96,4.83,CN,1720127192
59,adamstown,-25.066,-130.1015,293.57,72,8,5.36,PN,1720127194
60,tazovsky,67.4667,78.7,290.51,68,100,5.87,RU,1720127195
61,karratha,-20.7377,116.8463,287.01,44,54,7.03,AU,1720127196
62,margate,51.3813,1.3862,289.75,62,87,7.72,GB,1720127197
63,lakota,5.8528,-5.6883,294.68,93,78,1.62,CI,1720127198
64,port mathurin,-19.6833,63.4167,295.73,57,84,9.68,MU,1720127199
65,ascension,30.2169,-90.9001,304.3,82,100,4.01,US,1720127201
66,west island,-12.1568,96.8225,301.14,83,20,4.63,CC,1720127202
67,flekkefjord,58.2971,6.6607,284.79,93,92,1.48,NO,1720127204
68,dudinka,69.4058,86.1778,287.74,84,96,2.9,RU,1720127205
69,iskateley,67.6803,53.1512,282.33,83,50,6.82,RU,1720127207
70,barcelos,41.5388,-8.6151,297.23,62,12,1.02,PT,1720127208
71,coyhaique,-45.5752,-72.0662,274.49,93,18,2.94,CL,1720127164
72,ketchikan,55.3422,-131.6461,291.41,55,40,4.12,US,1720127210
73,dhromolaxia,34.8755,33.5868,299.73,79,0,3.09,CY,1720127211
74,stanley,54.868,-1.6985,285.21,69,20,4.63,GB,1720127213
75,invercargill,-46.4,168.35,275.94,91,97,4.47,NZ,1720127214
76,castillos,-34.1667,-53.8333,280.32,65,97,1.54,UY,1720127215
77,taltal,-25.4,-70.4833,289.3,70,57,3.61,CL,1720127216
78,misratah,32.3754,15.0925,297.26,67,0,6.69,LY,1720127217
79,soio,-6.1349,12.3689,294.43,89,100,3.34,AO,1720127219
80,saipan,15.1355,145.701,302.54,79,40,5.14,MP,1720127220
81,mugia,43.1041,-9.2179,293.24,88,12,10.33,ES,1720127221
82,kinkala,-4.3614,14.7644,295.18,60,24,2.26,CG,1720127222
83,kapa'a,22.0752,-159.319,301.33,79,75,6.17,US,1720127223
84,klyuchi,52.2667,79.1667,288.42,93,96,1.43,RU,1720127225
85,jonquiere,48.4165,-71.2488,297.21,82,87,5.41,CA,1720127226
86,khandyga,62.6667,135.6,284.31,69,67,1.43,RU,1720127227
87,glace bay,46.1969,-59.957,293.76,84,87,3.13,CA,1720127228
88,portoferraio,42.8115,10.3146,296.77,79,0,5.58,IT,1720127230
89,luang namtha,20.9497,101.4011,295.69,100,100,0.44,LA,1720127231
90,albertina,-22.2008,-46.6158,293.4,44,49,2.12,BR,1720127232
91,tadine,-21.55,167.8833,294.81,69,31,6.02,NC,1720127233
92,kodiak,57.79,-152.4072,285.88,76,0,3.09,US,1720127234
93,mamuju,-2.6748,118.8885,298.03,88,100,1.36,ID,1720127237
94,haimen,23.1935,116.6142,299.8,92,0,1.19,CN,1720127238
95,san cristobal,7.7669,-72.225,303.89,54,73,2.25,VE,1720127239
96,karachi,24.9056,67.0822,304.05,74,75,4.63,PK,1720127240
97,windsor,42.3001,-83.0165,301.53,53,75,3.09,CA,1720126987
98,tindouf,27.6711,-8.1474,304.38,19,0,6.48,DZ,1720127243
99,bubaque,11.2833,-15.8333,300.43,82,100,7.31,GW,1720127244
100,gangneung,37.7556,128.8961,299.46,72,75,9.48,KR,1720127245
101,qaqortoq,60.7167,-46.0333,276.45,88,18,1.26,GL,1720127246
102,forrest city,35.0081,-90.7898,307.02,55,60,2.83,US,1720127248
103,codrington,-38.2667,141.9667,279.22,91,10,3.48,AU,1720127249
104,port macquarie,-31.4333,152.9167,284.86,95,73,2.24,AU,1720127250
105,wenatchee,47.4235,-120.3103,306.55,23,0,2.24,US,1720127251
106,bilibino,68.0546,166.4372,291.95,55,100,1.3,RU,1720127252
107,wailua homesteads,22.0669,-159.378,300.59,79,75,6.17,US,1720127254
108,puerto natales,-51.7236,-72.4875,276.4,70,40,3.6,CL,1720127255
109,sarmiento,-45.5882,-69.07,275.64,60,15,11.4,AR,1720127256
110,nemuro,43.3236,145.575,286.26,99,100,3.33,JP,1720127257
111,oyama,36.3,139.8,302.36,72,1,3.29,JP,1720127258
112,brokopondo,4.75,-55.1667,299.6,84,100,4.4,SR,1720127260
113,north bend,43.4065,-124.2243,306.44,49,0,9.26,US,1720127261
114,richlands,37.0932,-81.7937,301.2,92,100,0.97,US,1720127262
115,sinabang,2.4803,96.3801,300.45,77,99,3.43,ID,1720127263
116,daokou,35.5639,114.5058,297.26,90,100,2.56,CN,1720127264
117,zhangatas,43.5667,69.75,296.27,41,0,3.34,KZ,1720127266
118,iqaluit,63.7506,-68.5145,278.0,93,100,2.06,CA,1720127267
119,forster,-32.1667,152.5167,284.98,84,100,5.26,AU,1720127268
120,flying fish cove,-10.4217,105.6791,298.97,83,100,6.69,CX,1720127269
121,gereida,11.2811,25.1414,301.04,60,18,4.55,SD,1720127271
122,kidal,18.4411,1.4078,307.69,31,7,3.86,ML,1720127272
123,ilulissat,69.2167,-51.1,280.82,53,9,2.64,GL,1720127273
124,markovo,57.3206,107.0881,289.6,85,18,2.18,RU,1720127274
125,choyr,46.3611,108.3611,292.6,49,98,5.82,MN,1720127275
126,yugorsk,61.3133,63.3319,296.23,65,1,4.11,RU,1720127277
127,ust-nera,64.5667,143.2,287.18,68,34,2.21,RU,1720127279
128,badger,64.8,-147.5333,287.29,86,100,3.6,US,1720127280
129,san isidro,-12.1167,-77.05,297.99,77,75,3.6,PE,1720127281
130,anaconda,46.1285,-112.9423,294.7,24,84,4.12,US,1720127283
131,saurimo,-9.6608,20.3916,290.18,37,1,2.21,AO,1720127284
132,papatowai,-46.5619,169.4708,280.98,69,61,5.96,NZ,1720127285
133,kristiansund,63.1115,7.732,291.51,45,100,3.6,NO,1720127286
134,taoudenni,22.6783,-3.9836,312.41,21,2,6.43,ML,1720127288
135,chonchi,-42.6128,-73.8092,278.77,85,67,2.36,CL,1720127289
136,olinda,-8.0089,-34.8553,299.0,73,0,4.63,BR,1720127290
137,miquelon,47.0975,-56.3814,285.15,96,100,7.12,PM,1720127291
138,thompson,55.7435,-97.8558,297.53,26,91,3.55,CA,1720127292
139,staronizhestebliyevskaya,45.3767,38.4517,296.02,61,2,3.23,RU,1720127294
140,lakatoro,-16.0999,167.4164,297.63,75,99,3.13,VU,1720127295
141,okha,53.5739,142.9478,288.39,85,73,2.23,RU,1720127296
142,ulysses,37.5814,-101.3552,302.68,47,0,6.69,US,1720127298
143,castletown,53.0281,-9.0686,285.42,90,100,4.79,IE,1720127300
144,kivioli,59.3531,26.9711,287.19,97,100,1.3,EE,1720127301
145,cole harbour,44.6724,-63.4751,291.38,81,83,1.79,CA,1720127302
146,tiksi,71.6872,128.8694,275.36,89,50,3.73,RU,1720127303
147,jayapura,-2.5333,140.7,296.81,92,87,2.33,ID,1720127304
148,isangel,-19.55,169.2667,296.21,94,75,0.0,VU,1720127306
149,san patricio,28.017,-97.5169,307.34,42,50,7.52,US,1720127307
150,kalmunai,7.4167,81.8167,299.9,79,100,5.2,LK,1720127308
151,mossel bay,-34.1831,22.146,286.08,72,6,2.78,ZA,1720127309
152,petropavlovsk-kamchatsky,53.0452,158.6483,283.48,93,75,2.0,RU,1720127310
153,visby,57.6409,18.296,287.49,94,75,4.12,SE,1720127312
154,nova sintra,14.8667,-24.7167,297.85,90,34,5.88,CV,1720127313
155,twon-brass,4.3151,6.2418,298.97,83,99,4.93,NG,1720127314
156,gumdag,39.2061,54.5906,300.47,46,0,5.4,TM,1720127315
157,velizh,55.6056,31.1967,292.6,95,72,2.24,RU,1720127316
158,sao jose da coroa grande,-8.8978,-35.1478,297.86,74,2,3.36,BR,1720127318
159,laminusa,5.5549,120.9136,300.91,72,17,0.65,PH,1720127319
160,lhokseumawe,5.1801,97.1507,298.44,85,100,1.85,ID,1720127320
161,kostrzyn,52.3985,17.2281,287.13,83,99,0.89,PL,1720127321
162,kenai,60.5544,-151.2583,292.2,65,0,8.23,US,1720127323
163,byron bay,-28.65,153.6167,284.1,81,69,5.72,AU,1720127324
164,port alfred,-33.5906,26.891,286.28,77,15,5.08,ZA,1720127325
165,alice springs,-23.7,133.8833,271.9,100,0,3.6,AU,1720127326
166,fort st. john,56.2499,-120.8529,295.34,43,5,3.74,CA,1720127327
167,alpena,45.0617,-83.4327,297.33,74,0,3.09,US,1720127329
168,talnakh,69.4865,88.3972,286.82,65,84,2.82,RU,1720127330
169,mournies,35.4764,24.0092,296.94,83,20,4.63,GR,1720127331
170,tazacorte,28.629,-17.9293,293.79,90,20,5.66,ES,1720127332
171,vorkuta,67.5,64.0,286.11,78,100,10.31,RU,1720127333
172,arkhangel'sk,64.5401,40.5433,289.21,94,0,3.0,RU,1720127335
173,kokopo,-4.352,152.2633,298.3,86,100,3.86,PG,1720127336
174,point pedro,9.8167,80.2333,300.84,85,67,6.58,LK,1720127337
175,la passe,45.5549,-0.8967,290.28,82,34,2.97,FR,1720127338
176,college,64.8569,-147.8028,287.33,86,100,3.6,US,1720127188
177,isafjordur,66.0755,-23.124,276.04,98,100,5.04,IS,1720127342
178,peniche,39.3558,-9.3811,292.75,91,0,4.73,PT,1720127343
179,margaret river,-33.95,115.0667,282.01,91,3,4.76,AU,1720127344
180,anadyr,64.75,177.4833,283.43,93,75,4.0,RU,1720127345
181,east falmouth,41.5784,-70.5586,297.8,73,0,8.75,US,1720127347
182,udachny,66.4167,112.4,285.9,53,28,0.56,RU,1720127348
183,sola,-13.8833,167.55,299.29,79,100,8.89,VU,1720127349
184,lebu,-37.6167,-73.65,281.23,63,2,8.42,CL,1720127350
185,altamont,42.2068,-121.7372,305.24,20,0,2.57,US,1720127351
186,floro,61.5996,5.0328,284.13,82,100,7.2,NO,1720127353
187,kem',64.9555,34.5793,289.25,76,99,3.27,RU,1720127354
188,kapuskasing,49.4169,-82.4331,292.97,72,95,2.78,CA,1720127355
189,st. john's,47.5649,-52.7093,290.81,85,100,0.45,CA,1720127356
190,ola,59.5833,151.2833,284.05,84,95,1.99,RU,1720127357
191,merizo village,13.2658,144.6691,301.47,92,73,4.92,GU,1720127359
192,ribeira grande,38.5167,-28.7,295.37,68,75,2.24,PT,1720127360
193,fale old settlement,-9.3852,-171.2468,301.43,78,48,8.88,TK,1720127361
194,vadso,70.0744,29.7487,288.64,76,0,4.63,NO,1720127362
195,aasiaat,68.7098,-52.8699,277.66,71,0,4.17,GL,1720127363
196,kuanda,56.3161,116.0806,292.97,80,19,0.5,RU,1720127367
197,kalemie,-5.9475,29.1947,295.1,53,9,0.79,CD,1720127368
198,minas de marcona,-15.2119,-75.1103,288.74,63,9,3.78,PE,1720127369
199,el tigre,8.8875,-64.2454,302.72,59,100,3.5,VE,1720127370
200,alofi,-19.0595,-169.9187,299.09,83,40,3.6,NU,1720127372
201,broken hill,-31.95,141.4333,280.27,87,2,6.8,AU,1720127373
202,nalut,30.3333,10.85,301.52,35,0,7.96,LY,1720127374
203,valle de la pascua,9.2155,-66.0073,301.0,84,100,1.35,VE,1720127375
204,yung shue wan,22.2333,114.1167,302.41,86,8,1.89,HK,1720127376
205,carnarvon,-24.8667,113.6333,286.94,56,0,6.88,AU,1720127378
206,sangmelima,2.9333,11.9833,293.58,98,100,1.36,CM,1720127379
207,ventspils,57.3894,21.5606,286.11,94,0,1.03,LV,1720127380
208,kavieng,-2.5744,150.7967,300.12,79,100,3.45,PG,1720127381
209,longboat key,27.4125,-82.659,307.2,66,20,6.17,US,1720127382
210,atafu village,-8.5421,-172.5159,301.53,80,79,8.62,TK,1720127384
211,happy valley-goose bay,53.3168,-60.3315,296.12,51,89,5.42,CA,1720127385
212,akureyri,65.6835,-18.0878,279.01,96,100,2.32,IS,1720127386
213,malango,-2.9627,119.9001,291.65,99,85,0.82,ID,1720127387
214,chibougamau,49.9168,-74.3659,285.9,81,100,5.45,CA,1720127388
215,peterhead,57.5058,-1.7981,285.62,73,100,10.04,GB,1720127390
216,mili,6.0815,171.735,300.78,78,100,4.02,MH,1720127392
217,avarua,-21.2078,-159.775,300.18,74,75,6.17,CK,1720127393
218,mar del plata,-38.0023,-57.5575,280.98,61,0,4.63,AR,1720127395
219,kingston,17.997,-76.7936,303.87,64,100,3.59,JM,1720127303
220,afaahiti,-17.75,-149.2833,299.85,79,55,9.63,PF,1720127397
221,abu dhabi,24.4667,54.3667,306.16,66,0,1.54,AE,1720127112
222,ghanzi,-21.5667,21.7833,285.88,21,0,2.9,BW,1720127399
223,mao,39.8885,4.2658,295.46,73,0,1.03,ES,1720127401
224,balcarce,-37.8462,-58.2552,279.16,48,0,0.89,AR,1720127402
225,san borja,-14.8167,-66.85,304.7,44,16,1.56,BO,1720127403
226,pingzhuang,42.0372,119.2889,292.9,62,35,0.67,CN,1720127404
227,alta,69.9689,23.2717,285.74,88,0,1.54,NO,1720127405
228,selfoss,63.9331,-20.9971,285.4,71,100,2.65,IS,1720127407
229,crane,31.3974,-102.3501,311.14,26,2,6.08,US,1720127408
230,ornskoldsvik,63.2909,18.7153,287.68,88,75,3.6,SE,1720127409
231,shahrud,36.4182,54.9763,298.69,36,0,4.05,IR,1720127410
232,puerto deseado,-47.7503,-65.8938,275.41,86,84,10.79,AR,1720127412
233,uturoa,-16.7333,-151.4333,299.15,77,3,9.19,PF,1720127413
234,port elizabeth,-33.918,25.5701,283.88,92,18,3.22,ZA,1720127414
235,tsiombe,-25.3,45.4833,290.81,78,0,2.8,MG,1720127416
236,hermanus,-34.4187,19.2345,288.04,81,91,11.98,ZA,1720127417
237,brockville,44.5834,-75.6826,302.23,66,72,4.5,CA,1720127419
238,dhidhdhoo,6.8833,73.1,301.5,81,98,5.29,MV,1720127420
239,merefa,49.8197,36.0519,295.6,53,50,3.68,UA,1720127421
240,mahina,-17.5065,-149.489,300.79,69,75,3.09,PF,1720127422
241,touros,-5.1989,-35.4608,298.1,76,39,5.14,BR,1720127424
242,bathsheba,13.2167,-59.5167,301.82,76,64,5.89,BB,1720127425
243,utete,-7.986,38.758,293.44,92,8,1.51,TZ,1720127426
244,lorengau,-2.0226,147.2712,299.17,84,98,2.66,PG,1720127427
245,muynoq,43.7683,59.0214,298.32,43,55,5.74,UZ,1720127428
246,onguday,50.75,86.15,284.71,91,100,1.62,RU,1720127430
247,lianzhou,24.7811,112.3825,296.92,97,2,1.49,CN,1720127431
248,lihue,21.9789,-159.3672,301.18,73,75,6.17,US,1720127432
249,valparaiso,-33.0393,-71.6273,288.95,47,0,8.23,CL,1720127434
250,sinop,41.7711,34.8709,291.32,79,99,1.27,TR,1720127435
251,ancud,-41.8697,-73.8203,279.65,69,49,4.72,CL,1720127437
252,harper,4.375,-7.7169,297.11,78,6,2.77,LR,1720127438
253,priozersk,61.0393,30.1291,287.59,91,100,2.28,RU,1720127439
254,zermatt,46.0213,7.7491,285.4,97,8,2.93,CH,1720127440
255,greymouth,-42.4667,171.2,276.25,82,55,2.67,NZ,1720127442
256,salmon arm,50.6998,-119.3024,303.39,23,1,1.66,CA,1720127443
257,east london,-33.0153,27.9116,288.08,53,7,4.45,ZA,1720127444
258,nar'yan-mar,67.6713,53.087,282.24,83,46,6.77,RU,1720127445
259,boa vista,2.8197,-60.6733,303.14,66,40,4.12,BR,1720127446
260,pocito,-31.6833,-68.5833,284.75,29,3,6.71,AR,1720127448
261,kone,-21.0595,164.8658,293.47,74,18,2.27,NC,1720127449
262,loen,7.7601,168.2307,300.22,79,100,4.05,MH,1720127450
263,gadzhiyevo,69.2551,33.3362,283.13,79,29,1.17,RU,1720127452
264,kismayo,-0.3582,42.5454,297.96,80,38,6.9,SO,1720127454
265,torghay,49.6339,63.4981,293.21,51,0,3.25,KZ,1720127455
266,valley city,46.9233,-98.0032,290.44,100,75,5.14,US,1720127456
267,hamilton,39.1834,-84.5333,302.18,82,20,4.12,US,1720127320
268,ouesso,1.6136,16.0517,295.95,91,62,0.99,CG,1720127458
269,alcaniz,41.05,-0.1333,299.72,42,0,2.56,ES,1720127459
270,galliano,29.4422,-90.2992,304.15,63,71,4.69,US,1720127461
271,bichura,50.5881,107.6022,292.31,77,100,0.11,RU,1720127462
272,nema,57.5067,50.5011,294.83,82,9,1.06,RU,1720127463
273,ustyuzhna,58.8394,36.4321,292.43,92,88,4.51,RU,1720127464
274,san luis de la loma,17.2706,-100.8939,302.73,68,14,4.05,MX,1720127466
275,luorong,24.4058,109.6086,298.19,91,68,1.77,CN,1720127467
276,santyoku,37.4406,129.1708,298.52,72,100,5.99,KR,1720127468
277,morant bay,17.8815,-76.4093,302.16,77,100,4.14,JM,1720127469
278,wynyard,-41.0,145.7167,276.73,82,0,2.16,AU,1720127470
279,preobrazheniye,42.9019,133.9064,292.67,85,100,0.72,RU,1720127472
280,tura,25.5198,90.2201,297.27,98,100,3.82,IN,1720127473
281,neiafu,-18.65,-173.9833,298.58,81,6,6.02,TO,1720127474
282,aykhal,66.0,111.5,285.58,52,62,1.17,RU,1720127475
283,youhao,47.8667,128.8333,292.43,93,100,0.71,CN,1720127476
284,owando,-0.4819,15.8999,297.8,74,69,1.42,CG,1720127478
285,qui nhon,13.7667,109.2333,298.19,86,99,1.65,VN,1720127479
286,torata,-17.0769,-70.8433,291.44,26,33,2.15,PE,1720127480
287,djibouti,11.5,42.5,305.79,33,71,1.26,DJ,1720127481
288,jebba,9.1333,4.8333,298.11,87,60,1.99,NG,1720127483
289,nikel,69.4128,30.222,288.25,65,94,3.79,RU,1720127484
290,sitka,57.0531,-135.33,289.09,72,40,3.09,US,1720127485
291,rio grande,-32.035,-52.0986,285.21,71,99,1.23,BR,1720127486
292,viedma,-40.8135,-62.9967,279.58,40,41,8.02,AR,1720127487
293,el triunfo,-1.9333,-79.9667,303.17,62,96,2.37,EC,1720127489
294,mweka,-4.85,21.5667,295.16,37,4,1.25,CD,1720127490
295,guerrero negro,27.9769,-114.0611,300.06,55,89,6.11,MX,1720126907
296,mount gambier,-37.8333,140.7667,278.82,96,14,2.32,AU,1720127492
297,tongliao,43.6125,122.2653,293.32,79,100,2.71,CN,1720127493
298,pacific grove,36.6177,-121.9166,302.25,66,0,3.09,US,1720127496
299,pulsano,40.3821,17.3564,297.86,57,20,1.79,IT,1720127498
300,sandnessjoen,66.0217,12.6316,291.21,55,75,3.6,NO,1720127052
301,betioky,-23.7167,44.3833,287.86,88,0,1.07,MG,1720127501
302,mogocha,53.7333,119.7667,291.18,82,66,1.5,RU,1720127502
303,san fernando de apure,7.8878,-67.4724,301.36,88,100,0.68,VE,1720127503
304,tolanaro,-25.0319,46.9987,294.19,83,40,4.12,MG,1720127040
305,lensk,60.7253,114.9278,286.56,67,85,2.24,RU,1720127505
306,praia da vitoria,38.7333,-27.0667,294.68,76,53,1.87,PT,1720127507
307,fallon,39.4735,-118.7774,307.08,27,0,2.57,US,1720127508
308,pamandzi,-12.7967,45.2794,296.03,88,0,2.06,YT,1720127509
309,tocopilla,-22.092,-70.1979,290.8,74,0,2.23,CL,1720127510
310,al qadarif,14.0349,35.3834,301.21,54,94,3.52,SD,1720127511
311,jieshi,22.8134,115.8257,301.35,85,0,1.56,CN,1720127513
312,brookings,44.3114,-96.7984,294.34,73,75,7.2,US,1720127514
313,sur,22.5667,59.5289,306.85,53,100,0.44,OM,1720127515
314,shenkursk,62.1091,42.896,288.47,76,8,2.01,RU,1720127516
315,canutama,-6.5339,-64.3831,297.67,87,100,1.86,BR,1720127517
316,jining,35.405,116.5814,295.63,91,44,3.29,CN,1720127519
317,hasaki,35.7333,140.8333,297.37,94,2,3.1,JP,1720127520
318,polyarnyy,69.1989,33.4478,283.84,76,37,1.19,RU,1720127034
319,namibe,-15.1961,12.1522,289.97,87,14,0.62,AO,1720127522
320,santa elena de uairen,4.6167,-61.1333,297.54,69,72,3.82,VE,1720127523
321,tromso,69.6496,18.957,285.16,71,0,6.17,NO,1720127525
322,perry,37.2506,-83.1999,306.25,80,100,2.36,US,1720127526
323,eyl,7.9803,49.8164,299.12,67,100,9.77,SO,1720127527
324,kroya,-7.6331,109.2461,297.14,92,95,3.03,ID,1720127528
325,port lincoln,-34.7333,135.8667,285.26,78,62,7.62,AU,1720127529
326,fisterra,42.9049,-9.2629,293.16,84,24,10.48,ES,1720127531
327,nogliki,51.8333,143.1667,291.81,85,100,1.88,RU,1720127532
328,portland,45.5234,-122.6762,304.63,39,0,3.09,US,1720127523
329,malmberget,67.1753,20.6549,286.46,77,100,2.57,SE,1720127534
330,byelaazyorsk,52.4731,25.1784,285.8,96,63,3.78,BY,1720127535
331,la baneza,42.3003,-5.8977,295.36,44,17,1.9,ES,1720127537
332,kamaishi,39.2667,141.8833,294.1,81,100,2.0,JP,1720127538
333,acapulco de juarez,16.8634,-99.8901,304.05,70,40,4.63,MX,1720127539
334,katsuren-haebaru,26.3369,127.8719,302.16,90,0,1.54,JP,1720127540
335,zimatlan de alvarez,16.8667,-96.7833,300.29,41,40,1.54,MX,1720127541
336,novo aripuana,-5.1206,-60.3797,301.15,66,100,1.24,BR,1720127543
337,vernon,50.2581,-119.2691,303.31,24,0,1.54,CA,1720127544
338,aldinga beach,-35.2793,138.4604,284.13,85,5,5.51,AU,1720127545
339,benjamin constant,-4.3831,-70.0311,303.22,74,40,2.06,BR,1720127546
340,hithadhoo,-0.6,73.0833,301.52,74,34,2.83,MV,1720127549
341,lupiro,-8.3833,36.6667,293.09,80,5,0.55,TZ,1720127550
342,yurty,56.0498,97.6348,288.69,96,100,2.22,RU,1720127551
343,port antonio,18.18,-76.4612,302.54,73,100,4.47,JM,1720127552
344,clearwater,27.9659,-82.8001,307.11,70,0,5.66,US,1720127554
345,acoyapa,11.9703,-85.1711,298.73,93,95,1.94,NI,1720127555
346,taman',45.2117,36.7161,298.41,68,2,1.83,RU,1720127556
347,bressanone,46.715,11.656,293.02,86,78,0.83,IT,1720127557
348,antonio enes,-16.2325,39.9086,295.61,72,43,1.27,MZ,1720127558
349,rosetta,31.4044,30.4164,298.9,74,0,3.64,EG,1720127560
350,namsos,64.4662,11.4957,289.18,72,100,3.6,NO,1720127561
351,lethem,3.3803,-59.7968,301.73,78,60,3.64,GY,1720127562
352,six-fours-les-plages,43.0938,5.84,298.76,61,0,6.04,FR,1720127563
353,mata-utu,-13.2816,-176.1745,301.08,78,7,8.85,WF,1720127565
354,luba,3.4568,8.5547,298.09,88,79,3.5,GQ,1720127021
355,sambava,-14.2667,50.1667,293.63,86,8,4.33,MG,1720127567
356,krasnokamensk,50.0979,118.0369,296.46,43,6,0.12,RU,1720127568
357,souillac,-20.5167,57.5167,295.36,60,40,6.69,MU,1720127569
358,lazaro cardenas,17.9583,-102.2,302.5,68,22,4.77,MX,1720127571
359,quibala,-10.7337,14.98,289.67,30,30,0.81,AO,1720127572
360,kingscliff,-28.2667,153.5667,287.56,82,57,5.14,AU,1720127573
361,dzhalagash,45.0833,64.6667,298.28,27,0,6.27,KZ,1720127574
362,guelendeng,10.9176,15.5501,298.88,71,98,1.84,TD,1720127575
363,makoua,0.0069,15.6333,297.92,80,97,1.22,CG,1720127577
364,kirakira,-10.4544,161.9205,298.86,79,68,3.67,SB,1720127578
365,suntar,62.1444,117.6319,285.31,76,3,1.76,RU,1720127579
366,keyser,39.4409,-78.9739,305.06,72,99,4.47,US,1720127580
367,bel ombre,-4.6167,55.4167,300.06,69,20,4.63,SC,1720127581
368,yemel'yanovo,56.1681,92.6767,288.6,100,100,0.0,RU,1720127583
369,kourou,5.1552,-52.6478,298.18,74,79,2.71,GF,1720127584
370,bunde,53.1833,7.2667,287.13,80,39,5.01,DE,1720127585
371,sona,45.4388,10.8255,293.84,75,0,1.54,IT,1720127586
372,baki,-7.6128,110.7839,296.09,89,74,1.88,ID,1720127588
373,holyhead,53.3062,-4.6321,287.15,82,67,9.77,GB,1720127589
374,oranjemund,-28.55,16.4333,284.78,81,0,2.49,NA,1720127590
375,usogorsk,63.4106,48.6872,287.41,83,8,0.73,RU,1720127591
376,mahdia,35.5047,11.0622,299.12,62,0,7.41,TN,1720127594
377,nizhneangarsk,55.7833,109.55,290.82,61,41,1.92,RU,1720127595
378,kende,11.5197,4.2603,302.03,63,100,3.49,NG,1720127596
379,boguchany,58.3814,97.4531,292.3,88,93,1.11,RU,1720127597
380,sidi ifni,29.3797,-10.173,295.01,81,78,3.29,MA,1720127598
381,siwa oasis,29.2041,25.5195,304.4,26,0,4.75,EG,1720127600
382,figuig (centre),32.1089,-1.2286,306.19,7,4,0.72,MA,1720127601
383,shush,32.1942,48.2436,308.71,10,0,5.2,IR,1720127602
384,hecun,36.5333,114.1111,297.81,77,99,1.02,CN,1720127603
385,anori,-3.7728,-61.6442,302.17,67,100,0.73,BR,1720127604
386,firuzabad,28.8438,52.5707,301.64,20,7,1.25,IR,1720127606
387,yaren,-0.5472,166.916,300.24,76,100,2.48,NR,1720127607
388,yuzhno-kurilsk,44.0306,145.8556,289.0,95,82,1.9,RU,1720127608
389,mitsamiouli,-11.3847,43.2844,298.68,74,10,2.45,KM,1720127609
390,toliara,-23.35,43.6667,293.0,69,0,2.85,MG,1720127610
391,luocheng,29.3848,104.0286,295.09,99,99,2.14,CN,1720127612
392,lepsy,46.235,78.9456,291.58,72,41,5.94,KZ,1720127613
393,caleta de carquin,-11.0925,-77.6267,292.86,74,10,4.47,PE,1720127615
394,ciudad lazaro cardenas,17.9583,-102.2,302.5,68,22,4.77,MX,1720127616
395,perelyub,51.8667,50.3667,298.39,53,6,4.18,RU,1720127618
396,nyurba,63.2842,118.3319,283.71,76,67,1.89,RU,1720127619
397,esperantina,-3.9017,-42.2336,302.24,60,100,3.83,BR,1720127620
398,baiyin,36.5583,104.2081,289.67,72,55,3.09,CN,1720127621
399,kawm umbu,24.4767,32.9463,308.44,8,99,4.11,EG,1720127623
400,saint-joseph,-21.3667,55.6167,290.36,73,32,6.8,RE,1720127624
401,sao tome,0.3365,6.7273,297.75,83,77,4.29,ST,1720127625
402,terrace,54.5163,-128.6035,296.1,35,20,1.03,CA,1720127626
403,hammerfest,70.6634,23.6821,283.4,87,75,5.14,NO,1720127561
404,westport,41.1415,-73.3579,301.78,69,0,3.6,US,1720127589
405,muisne,0.6,-80.0333,298.69,79,100,2.79,EC,1720127630
406,severodvinsk,64.5635,39.8302,289.21,81,40,3.16,RU,1720127631
407,antsiranana,-12.2787,49.2917,295.54,75,63,5.06,MG,1720127632
408,ha'il,27.5219,41.6907,304.16,15,0,3.09,SA,1720127633
409,rengasdengklok,-6.1592,107.2981,297.43,89,100,2.81,ID,1720127634
410,fort-shevchenko,44.5086,50.263,303.66,36,28,3.13,KZ,1720127636
411,illizi,26.4833,8.4667,309.04,11,0,4.43,DZ,1720127637
412,tingo maria,-9.2895,-76.0088,304.32,55,20,0.0,PE,1720127638
413,zhangye,38.9342,100.4517,292.35,41,13,3.68,CN,1720127639
414,el hadjira,32.6134,5.5126,307.13,14,0,4.22,DZ,1720127641
415,cheremukhovo,60.3484,59.9851,293.96,77,18,1.59,RU,1720127642
416,flin flon,54.7682,-101.865,297.06,46,40,3.6,CA,1720127643
417,as sulayyil,20.4607,45.5779,304.29,12,2,4.87,SA,1720127644
418,holualoa,19.6228,-155.9522,300.06,78,75,7.2,US,1720127645
419,kerikeri,-35.2268,173.9474,279.77,92,12,2.24,NZ,1720126880
420,oak grove,45.4168,-122.6401,304.36,39,0,3.09,US,1720127648
421,qina,26.1642,32.7267,307.25,13,40,1.82,EG,1720127649
422,tchintabaraden,15.8969,5.7985,308.33,32,77,0.76,NE,1720127650
423,tanout,14.9709,8.8879,303.29,45,51,7.01,NE,1720127651
424,linqiong,30.4159,103.4609,295.1,95,100,0.85,CN,1720127653
425,angaur state,6.906,134.13,301.02,73,100,0.52,PW,1720127654
426,itamarandiba,-17.8572,-42.8589,289.76,58,0,1.89,BR,1720127655
427,acarau,-2.8856,-40.12,299.11,76,17,7.63,BR,1720127656
428,araucaria,-25.5931,-49.4103,295.31,55,81,0.73,BR,1720127657
429,labrador city,52.9463,-66.9114,293.1,73,75,6.69,CA,1720127659
430,maturin,9.75,-63.1767,302.02,75,84,3.31,VE,1720127660
431,manaure,11.7751,-72.4445,302.04,77,100,6.57,CO,1720127661
432,son la,21.3167,103.9,293.68,99,100,0.47,VN,1720127662
433,ambagarh chauki,20.7833,80.7167,298.51,87,100,4.91,IN,1720127663
434,tofol,5.3248,163.0078,300.38,74,100,5.42,FM,1720127666
435,kishtwar,33.3167,75.7667,294.64,94,76,1.15,IN,1720127667
436,rioja,-29.4111,-66.8507,289.31,42,5,2.23,AR,1720127579
437,isola di capo rizzuto,38.96,17.0933,294.36,65,0,2.44,IT,1720127669
438,mersing,2.4312,103.8405,298.28,90,64,1.35,MY,1720127673
439,alexandria,31.2156,29.9553,299.38,71,0,3.43,EG,1720127674
440,prince george,53.9166,-122.753,295.53,47,40,2.57,CA,1720127676
441,bamboo flat,11.7,92.7167,297.65,84,100,3.86,IN,1720127677
442,thinadhoo,0.5333,72.9333,302.14,73,60,2.27,MV,1720127678
443,yulinshi,38.2906,109.7494,297.52,46,100,7.57,CN,1720127679
444,primero de mayo,-32.2552,-58.4228,282.49,59,68,3.75,AR,1720127680
445,hlobyne,49.3878,33.2596,294.51,70,100,2.93,UA,1720127682
446,prince rupert,54.3161,-130.3201,288.98,80,0,5.14,CA,1720127683
447,ocean shores,46.9737,-124.1563,296.15,74,0,5.66,US,1720127684
448,alcala la real,37.4614,-3.923,303.35,29,0,1.72,ES,1720127685
449,marquette,46.5333,-87.6335,292.84,81,100,1.34,US,1720127686
450,haiku-pauwela,20.9219,-156.3051,301.62,66,20,11.32,US,1720127688
451,balkanabat,39.5108,54.3671,304.14,28,0,2.27,TM,1720127689
452,galle,6.0367,80.217,300.29,85,88,3.16,LK,1720127690
453,pisco,-13.7,-76.2167,291.18,82,0,4.63,PE,1720127691
454,al bawiti,28.3492,28.8659,305.38,29,0,4.1,EG,1720127693
455,luanda,-8.8368,13.2343,295.15,83,40,2.06,AO,1720127694
456,dursunbey,39.586,28.6257,290.4,86,99,0.28,TR,1720127695
457,cockburn town,21.4612,-71.1419,301.44,83,100,7.0,TC,1720127696
458,tambacounda,13.7539,-13.7586,307.18,52,20,6.17,SN,1720127697
459,howrah,22.5892,88.3103,302.15,89,40,3.09,IN,1720127699
460,sabang,5.8933,95.3214,301.61,75,100,7.16,ID,1720127700
461,konarka,19.9,86.1167,299.91,83,100,3.77,IN,1720127701
462,naze,28.3667,129.4833,298.66,86,18,1.97,JP,1720127702
463,puerto armuelles,8.2833,-82.8667,302.02,91,100,3.13,PA,1720127423
464,mount zion,39.7714,-88.8742,300.0,73,100,3.6,US,1720127705
465,port douglas,-16.4833,145.4667,295.71,82,85,7.21,AU,1720127706
466,gulf shores,30.246,-87.7008,305.37,73,40,3.6,US,1720127707
467,robertsport,6.7533,-11.3686,299.06,77,19,4.1,LR,1720127708
468,dryden,49.7833,-92.7503,295.31,60,75,2.06,CA,1720127710
469,san andres,12.5847,-81.7006,303.16,79,40,2.06,CO,1720127711
470,sharlyk,52.9167,54.75,294.76,82,0,0.98,RU,1720127712
471,tual,-5.6667,132.75,299.29,82,91,9.76,ID,1720127713
472,baruun-urt,46.6806,113.2792,292.16,59,71,0.88,MN,1720127714
473,kemijarvi,66.7131,27.4306,287.08,92,100,1.91,FI,1720127716
474,luderitz,-26.6481,15.1594,286.55,69,0,5.42,NA,1720127717
475,vung tau,10.346,107.0843,299.38,80,100,3.28,VN,1720127718
476,aripuana,-9.1667,-60.6333,302.01,59,100,1.55,BR,1720127719
477,the pas,53.8251,-101.2541,297.16,43,20,1.03,CA,1720127720
478,la'ie,21.6477,-157.9253,303.15,78,15,1.34,US,1720127722
479,guichon,-32.35,-57.2,280.99,71,54,3.15,UY,1720127723
480,vila franca do campo,37.7167,-25.4333,293.38,99,65,0.89,PT,1720127724
481,santa ana de yacuma,-13.75,-65.4333,306.12,40,20,3.09,BO,1720127725
482,berdigestyakh,62.0989,126.6992,283.98,67,51,4.38,RU,1720127726
483,navoiy,40.0844,65.3792,298.86,25,0,2.06,UZ,1720127728
484,midvagur,62.0511,-7.1939,283.61,93,100,3.6,FO,1720127729
485,kimry,56.8667,37.35,291.54,87,100,4.59,RU,1720127730
486,richards bay,-28.783,32.0377,288.81,63,0,2.87,ZA,1720127731
487,aldan,58.6031,125.3894,284.96,77,100,1.74,RU,1720127732
488,remire-montjoly,4.9167,-52.2667,298.17,88,23,2.57,GF,1720127734
489,trabzon,40.9167,39.8333,295.2,83,75,2.57,TR,1720127735
490,north ryde,-33.7968,151.1244,286.08,86,22,0.45,AU,1720127445
491,severo-yeniseyskiy,60.3725,93.0408,290.97,65,100,1.52,RU,1720127737
492,deyang,31.1302,104.382,295.51,91,100,1.52,CN,1720127739
493,champerico,14.3,-91.9167,302.78,71,67,3.78,GT,1720127740
494,coquimbo,-29.9533,-71.3436,287.0,68,0,3.6,CL,1720127741
495,eydhafushi,5.1033,73.0708,301.27,76,86,2.77,MV,1720127742
496,cajabamba,-7.6167,-78.05,294.84,31,46,1.96,PE,1720127743
497,bakchar,57.0186,82.0711,285.77,99,100,1.8,RU,1720127745
498,ngchemiangel,7.4461,134.4768,298.23,88,75,0.0,PW,1720127746
499,kuching,1.55,110.3333,298.76,89,40,1.34,MY,1720127747
500,ulladulla,-35.35,150.4667,286.01,79,95,4.9,AU,1720127748
501,laguna,38.421,-121.4238,315.61,26,0,1.34,US,1720127727
502,meadow lake,34.8014,-106.5436,309.65,12,0,7.42,US,1720127751
503,jeddah,21.5169,39.2192,307.07,20,0,0.0,SA,1720127752
504,muzaffarabad,34.37,73.4711,298.44,82,24,1.41,PK,1720127753
505,pompeia,-22.1086,-50.1717,300.42,35,0,1.61,BR,1720127754
506,uige,-7.6087,15.0613,291.61,41,3,1.4,AO,1720127755
507,besisahar,28.2313,84.3761,294.79,96,100,1.08,NP,1720127757
508,roscommon,53.6333,-8.1833,283.77,78,96,4.26,IE,1720127758
509,bakanas,44.8081,76.2772,293.0,65,83,2.09,KZ,1720127759
510,kyabe,9.4515,18.9449,298.78,71,89,1.14,TD,1720127760
511,bethanie,-26.4833,17.15,285.9,22,0,2.1,NA,1720127762
512,paka,4.6374,103.4368,298.11,94,85,0.0,MY,1720127763
513,la ronge,55.1001,-105.2842,298.27,23,20,5.66,CA,1720127764
514,swakopmund,-22.6833,14.5333,286.47,86,2,2.26,NA,1720127765
515,sittwe,20.15,92.9,300.51,82,100,3.88,MM,1720127766
516,dokshytsy,54.8924,27.7689,286.31,98,83,2.54,BY,1720127768
517,milagres,-7.3133,-38.9456,300.86,33,2,3.23,BR,1720127769
518,port blair,11.6667,92.75,298.16,84,100,4.08,IN,1720127770
519,san antonio de pale,-1.4014,5.6325,296.57,83,97,4.52,GQ,1720127771
520,khash,28.2211,61.2158,304.35,16,100,1.02,IR,1720127772
521,tamandare,-8.7597,-35.1047,297.51,75,5,3.02,BR,1720127774
522,sabzevar,36.2126,57.6819,300.85,18,2,5.37,IR,1720127775
523,coahuayana de hidalgo,18.7,-103.6583,305.21,58,18,3.39,MX,1720127776
524,whakatane,-37.9585,176.9854,281.36,90,100,1.34,NZ,1720127564
525,inverloch,-38.6333,145.7167,280.96,88,9,2.81,AU,1720127778
526,ulanhot,46.0833,122.0833,293.8,81,100,2.64,CN,1720127780
527,hilo,19.7297,-155.09,302.01,62,100,3.6,US,1720127781
528,kazanka,47.8462,32.8218,292.17,86,22,2.92,UA,1720127782
529,sao sepe,-30.1606,-53.5653,283.78,97,100,3.69,BR,1720127783
530,san nicolas de los arroyos,-33.3358,-60.2252,284.29,40,100,2.5,AR,1720127784
531,tan-tan,28.438,-11.1032,293.64,76,52,5.74,MA,1720127786
532,vila velha,-20.3297,-40.2925,297.12,78,0,5.14,BR,1720127787
533,bhawana,31.5692,72.649,308.87,51,8,6.16,PK,1720127789
534,nizhnyaya tavda,57.6731,66.1725,293.02,86,37,2.37,RU,1720127791
535,donggang,28.9365,114.2259,297.84,87,67,1.02,CN,1720127792
536,dem'yanovo,60.3511,47.0842,290.56,76,30,0.84,RU,1720127793
537,zag,46.9441,99.165,284.92,79,100,0.59,MN,1720127794
538,pandan,14.0453,124.1694,299.71,88,100,2.6,PH,1720127795
539,tanjung selor,2.8372,117.3642,295.84,98,64,0.93,ID,1720127798
540,impfondo,1.6381,18.0667,296.38,83,66,0.13,CG,1720127799
541,ostersund,63.1792,14.6357,286.4,74,100,4.12,SE,1720127800
542,clearfield,41.1253,-78.75,301.34,81,100,0.0,US,1720127802
543,noumea,-22.2763,166.4572,295.93,99,64,6.03,NC,1720127803
544,mana,5.6592,-53.7767,300.32,77,41,3.61,GF,1720127804
545,lobujya,27.95,86.8167,276.35,98,97,1.77,NP,1720127805
546,muborak,39.2553,65.1528,301.94,19,0,4.87,UZ,1720127806
547,ta`u,-14.2336,-169.5144,300.27,76,0,9.58,AS,1720127808
548,mount pearl,47.5166,-52.7813,289.24,88,75,2.57,CA,1720127809
549,sarangani,5.4033,125.4636,300.29,79,99,2.24,PH,1720127810
550,altamira,-3.2033,-52.2064,305.2,62,40,0.51,BR,1720127811
551,na mom,6.9586,100.5568,298.06,88,20,0.51,TH,1720127812
552,gaspe,48.8334,-64.4819,296.27,60,40,8.23,CA,1720127814
553,tralee,52.2704,-9.7026,283.52,96,100,0.86,IE,1720127815
554,vallenar,-28.5708,-70.7581,292.87,35,4,2.13,CL,1720127816
555,stephenville,32.2207,-98.2023,311.44,34,0,1.54,US,1720127817
556,jijiga,9.35,42.8,292.4,68,99,0.64,ET,1720127819
557,altay,47.8667,88.1167,288.44,50,100,2.88,CN,1720127820
558,kodinsk,58.6881,99.1844,293.23,58,88,1.99,RU,1720127821
559,anloga,5.7947,0.8973,298.9,86,98,5.24,GH,1720127822
560,al kharijah,25.4514,30.5464,306.09,14,17,2.62,EG,1720127823
561,ponta delgada,37.7333,-25.6667,293.55,73,75,2.57,PT,1720127825
562,elko,41.0002,-115.5012,303.16,11,0,6.71,US,1720127826
563,vikulovo,56.8167,70.6107,289.77,89,39,2.11,RU,1720127827
